City_ID,City,Lat,Lng,Max Temp,Humidity,Cloudiness,Wind Speed,Country,Date
0,utrik,11.2278,169.8474,27.04,79,59,5.29,MH,1710930612
1,hermanus,-34.4187,19.2345,27.67,49,27,5.7,ZA,1710930614
2,taulaga,-11.0553,-171.0883,29.39,75,53,4.88,AS,1710930615
3,gao,16.6362,1.637,32.85,6,0,6.03,ML,1710930617
4,puerto natales,-51.7236,-72.4875,-0.23,90,57,2.38,CL,1710930618
5,nantucket,41.2835,-70.0995,6.08,82,100,5.14,US,1710930620
6,udachny,66.4167,112.4,-23.91,88,27,1.37,RU,1710930621
7,avarua,-21.2078,-159.775,26.03,94,40,0.51,CK,1710930572
8,waitangi,-43.9535,-176.5597,12.68,81,93,1.34,NZ,1710930625
9,buxtehude,53.45,9.7,15.09,78,100,2.18,DE,1710930626
10,nagqu,31.5,92.0,2.74,13,100,4.41,CN,1710930628
11,tazovsky,67.4667,78.7,-26.27,93,94,6.39,RU,1710930630
12,rikaze,29.25,88.8833,7.27,19,100,1.34,CN,1710930632
13,singkil,-7.9855,111.4161,27.07,80,24,0.96,ID,1710930633
14,yellowknife,62.456,-114.3525,-30.71,69,0,3.09,CA,1710930582
15,port-aux-francais,-49.35,70.2167,8.27,92,100,17.96,TF,1710930636
16,jinghong,21.991,100.7341,28.57,48,62,1.32,CN,1710930638
17,qaqortoq,60.7167,-46.0333,-13.58,69,0,3.93,GL,1710930639
18,kailua-kona,19.6406,-155.9956,22.98,92,40,2.06,US,1710930641
19,xining,36.6167,101.7667,11.78,8,1,6.15,CN,1710930642
20,port elizabeth,-33.918,25.5701,26.16,65,20,4.63,ZA,1710930644
21,uturoa,-16.7333,-151.4333,28.38,73,73,3.23,PF,1710930645
22,invercargill,-46.4,168.35,10.57,91,1,0.45,NZ,1710930616
23,adamstown,-25.066,-130.1015,25.05,79,100,9.24,PN,1710930649
24,eydhafushi,5.1033,73.0708,28.82,72,8,5.52,MV,1710930650
25,ankpa,7.3706,7.6253,37.78,20,74,1.79,NG,1710930652
26,tolanaro,-25.0319,46.9987,28.08,74,27,1.78,MG,1710930653
27,ulsteinvik,62.3432,5.8487,7.4,77,100,5.36,NO,1710930655
28,muntok,-2.0667,105.1833,27.58,80,80,4.83,ID,1710930657
29,georgetown,5.4112,100.3354,33.97,55,20,4.63,MY,1710930542
30,polyarnyy,69.1989,33.4478,-2.78,86,100,3.68,RU,1710930660
31,arrifes,37.7667,-25.7,14.14,67,20,0.51,PT,1710930661
32,eirunepe,-6.6603,-69.8736,22.66,99,100,0.62,BR,1710930494
33,albany,42.6001,-73.9662,2.27,82,97,1.34,US,1710930635
34,kimbe,-5.5502,150.1429,25.38,92,100,1.58,PG,1710930666
35,olonkinbyen,70.9221,-8.7187,-0.55,97,100,16.47,SJ,1710930667
36,thandla,23.0,74.5667,35.25,10,4,4.14,IN,1710930669
37,edinburgh of the seven seas,-37.0676,-12.3116,18.79,94,88,10.36,SH,1710930670
38,happy valley-goose bay,53.3168,-60.3315,-2.83,80,75,3.09,CA,1710930672
39,kita,13.0349,-9.4895,37.28,17,10,2.36,ML,1710930674
40,geraldton,-28.7667,114.6,29.23,48,40,7.2,AU,1710930675
41,petropavlovsk-kamchatsky,53.0452,158.6483,-5.67,80,40,2.0,RU,1710930632
42,minas de marcona,-15.2119,-75.1103,18.21,88,67,3.35,PE,1710930678
43,tiksi,71.6872,128.8694,-21.1,100,99,1.99,RU,1710930680
44,longyearbyen,78.2186,15.6401,-22.09,64,75,1.54,SJ,1710930681
45,punta arenas,-53.15,-70.9167,1.06,80,40,3.6,CL,1710930483
46,luderitz,-26.6481,15.1594,29.3,46,100,6.01,NA,1710930684
47,handan,36.6006,114.4678,13.13,24,0,3.54,CN,1710930686
48,talnakh,69.4865,88.3972,-19.33,98,100,2.45,RU,1710930688
49,puerto ayora,-0.7393,-90.3518,25.86,100,20,0.89,EC,1710930677
50,rabaul,-4.1967,152.1721,27.78,75,97,1.1,PG,1710930691
51,bethel,41.3712,-73.414,4.19,79,100,2.0,US,1710930564
52,grytviken,-54.2811,-36.5092,0.94,82,53,3.91,GS,1710930694
53,enewetak,11.3474,162.3373,27.51,81,10,3.93,MH,1710930696
54,letterkenny,54.95,-7.7333,9.94,68,62,3.58,IE,1710930691
55,sturgeon bay,44.8342,-87.377,-3.8,58,100,12.86,US,1710930700
56,mugia,43.1041,-9.2179,14.39,84,75,7.63,ES,1710930702
57,anadyr,64.75,177.4833,-18.72,84,100,11.0,RU,1710930703
58,papatowai,-46.5619,169.4708,12.25,77,0,2.12,NZ,1710930705
59,kiruna,67.8557,20.2251,-4.49,63,0,1.54,SE,1710930407
60,zhezqazghan,47.7833,67.7667,0.32,93,100,8.0,KZ,1710930708
61,cabedelo,-6.9811,-34.8339,27.37,66,75,4.47,BR,1710930709
62,maluso,6.543,121.8753,29.05,81,64,2.88,PH,1710930711
63,ilulissat,69.2167,-51.1,-12.99,52,20,4.63,GL,1710930712
64,maceio,-9.6658,-35.7353,26.69,94,40,1.03,BR,1710930419
65,awjilah,29.1081,21.2869,28.83,14,0,5.93,LY,1710930717
66,bredasdorp,-34.5322,20.0403,26.67,55,32,8.65,ZA,1710930718
67,las tablas,7.7667,-80.2833,25.1,99,94,2.63,PA,1710930720
68,ribeira grande,38.5167,-28.7,16.54,72,75,4.47,PT,1710930721
69,codrington,-38.2667,141.9667,11.98,58,5,3.14,AU,1710930723
70,margaret river,-33.95,115.0667,17.34,70,0,5.7,AU,1710930672
71,atlanta,33.749,-84.388,7.07,55,0,3.6,US,1710930304
72,pisco,-13.7,-76.2167,21.12,88,75,0.51,PE,1710930728
73,birsk,55.4211,55.5428,-0.27,93,8,0.98,RU,1710930729
74,kelso,46.1468,-122.9084,9.38,87,100,0.45,US,1710930731
75,remire-montjoly,4.9167,-52.2667,26.02,89,75,0.0,GF,1710930732
76,kurumkan,54.3,110.3,0.63,88,72,0.89,RU,1710930735
77,lihue,21.9789,-159.3672,18.77,76,0,5.66,US,1710930736
78,khash,28.2211,61.2158,25.14,26,58,9.51,IR,1710930738
79,hawaiian paradise park,19.5933,-154.9731,18.73,95,100,3.09,US,1710930740
80,hassi messaoud,31.6804,6.0729,28.92,12,0,1.03,DZ,1710930722
81,saynshand,44.8824,110.1163,5.5,25,0,3.07,MN,1710930743
82,shingu,33.7333,135.9833,3.64,61,4,6.16,JP,1710930744
83,taikang,46.8333,124.4167,-1.39,40,46,5.61,CN,1710930746
84,blackmans bay,-43.0167,147.3167,10.29,67,17,2.98,AU,1710930747
85,lebu,-37.6167,-73.65,11.89,93,100,4.75,CL,1710930749
86,kodiak,57.79,-152.4072,2.73,75,100,1.54,US,1710930750
87,port augusta,-32.5,137.7667,19.55,42,0,8.51,AU,1710930752
88,mumford,5.2618,-0.759,30.25,70,44,5.29,GH,1710930753
89,zhob,31.3411,69.4481,24.29,14,99,1.12,PK,1710930755
90,thames,-37.1333,175.5333,10.5,77,2,0.83,NZ,1710930757
91,bilibino,68.0546,166.4372,-28.91,88,6,1.59,RU,1710930758
92,katsuura,35.1333,140.3,10.01,49,92,14.36,JP,1710930760
93,iqaluit,63.7506,-68.5145,-17.95,84,100,0.0,CA,1710930744
94,coahuayana de hidalgo,18.7,-103.6583,21.81,88,94,1.33,MX,1710930767
95,mont-dore,-22.2833,166.5833,26.11,99,82,4.1,NC,1710930768
96,vorgashor,67.5833,63.95,-20.79,93,8,0.92,RU,1710930770
97,eyl,7.9803,49.8164,30.73,56,6,6.7,SO,1710930771
98,saldanha,-33.0117,17.9442,34.03,54,82,4.09,ZA,1710930773
99,magadan,59.5667,150.8,-10.26,92,40,2.27,RU,1710930774
100,kapuskasing,49.4169,-82.4331,-12.0,79,100,6.17,CA,1710930776
101,hadibu,12.65,54.0333,28.68,68,19,4.16,YE,1710930777
102,villa gesell,-37.2639,-56.973,20.59,98,69,2.56,AR,1710930779
103,puerto santa,-8.9906,-78.6456,21.44,87,98,3.24,PE,1710930780
104,mount isa,-20.7333,139.5,26.87,54,100,6.69,AU,1710930628
105,afaahiti,-17.75,-149.2833,25.93,76,87,4.59,PF,1710930783
106,maragogi,-9.0122,-35.2225,28.36,64,35,2.74,BR,1710930551
107,kupang,-10.1667,123.5833,28.32,94,40,2.06,ID,1710930786
108,arris,35.2588,6.3471,20.29,24,13,2.71,DZ,1710930788
109,flying fish cove,-10.4217,105.6791,27.82,78,40,3.6,CX,1710930789
110,strezhevoy,60.7333,77.5889,-13.35,95,13,2.68,RU,1710930737
111,sandnessjoen,66.0217,12.6316,5.23,81,75,5.14,NO,1710930792
112,alice springs,-23.7,133.8833,24.75,48,100,8.23,AU,1710930794
113,susuman,62.7833,148.1667,-21.12,99,9,1.34,RU,1710930795
114,whitehorse,60.7161,-135.0538,-2.57,79,40,2.06,CA,1710930797
115,cekerek,40.0731,35.4947,9.52,38,100,1.37,TR,1710930798
116,ola,59.5833,151.2833,-11.81,95,47,1.91,RU,1710930801
117,ust-nera,64.5667,143.2,-16.74,99,100,1.94,RU,1710930742
118,ghadamis,30.1337,9.5007,27.9,13,0,0.81,LY,1710930804
119,fale old settlement,-9.3852,-171.2468,29.31,74,53,3.81,TK,1710930806
120,kingston,17.997,-76.7936,23.98,89,2,1.34,JM,1710930807
121,isafjordur,66.0755,-23.124,-0.98,74,75,2.06,IS,1710930809
122,okhotsk,59.3833,143.3,-11.79,93,21,2.23,RU,1710930810
123,stanley,54.868,-1.6985,8.77,94,75,3.09,GB,1710930811
124,thompson,55.7435,-97.8558,-30.91,69,0,1.54,CA,1710930707
125,college,64.8569,-147.8028,-2.17,74,20,4.12,US,1710930621
126,sake,-1.5736,29.045,27.19,55,45,1.79,CD,1710930817
127,ta`u,-14.2336,-169.5144,28.69,70,100,2.63,AS,1710930819
128,saint-joseph,-21.3667,55.6167,30.21,77,47,3.19,RE,1710930821
129,bakchar,57.0186,82.0711,-3.4,89,100,3.31,RU,1710930822
130,naze,28.3667,129.4833,12.51,56,7,8.44,JP,1710930824
131,lukoyanov,55.0277,44.4786,0.38,99,100,0.9,RU,1710930825
132,callao,-12.0667,-77.15,23.73,88,100,3.6,PE,1710930826
133,inirida,3.8653,-67.9239,24.3,96,99,0.3,CO,1710930828
134,tura,25.5198,90.2201,15.98,91,100,2.76,IN,1710930829
135,badger,64.8,-147.5333,-3.05,72,20,4.12,US,1710930831
136,port mathurin,-19.6833,63.4167,26.35,79,88,8.36,MU,1710930832
137,gamba,-2.65,10.0,30.54,69,57,3.19,GA,1710930835
138,constantia,44.1833,28.65,7.61,54,13,9.67,RO,1710930836
139,ponta delgada,37.7333,-25.6667,15.4,67,20,0.51,PT,1710930839
140,mount pearl,47.5166,-52.7813,0.04,88,75,10.8,CA,1710930716
141,buala,-8.145,159.5921,26.58,88,99,2.28,SB,1710930842
142,nikolayevsk-on-amure,53.1406,140.73,-10.63,98,99,1.13,RU,1710930844
143,harstad,68.799,16.5293,3.42,85,100,10.73,NO,1710930845
144,lagdo,9.05,13.7333,37.22,7,100,1.96,CM,1710930847
145,lazaro cardenas,17.9583,-102.2,21.16,60,85,1.57,MX,1710930850
146,mil'kovo,55.6078,37.7956,5.27,94,100,1.98,RU,1710930852
147,majene,-3.5403,118.9707,27.73,81,94,3.48,ID,1710930855
148,aldan,58.6031,125.3894,-6.89,85,97,4.91,RU,1710930856
149,port alfred,-33.5906,26.891,26.21,83,97,1.34,ZA,1710930858
150,yuscaran,13.9333,-86.85,21.58,84,79,1.61,HN,1710930862
151,kununurra,-15.7667,128.7333,32.99,55,100,2.57,AU,1710930864
152,laojunmiao,39.8333,97.7333,9.61,12,25,1.5,CN,1710930865
153,west island,-12.1568,96.8225,29.99,74,24,4.12,CC,1710930867
154,tralee,52.2704,-9.7026,10.14,76,75,3.6,IE,1710930868
155,king's lynn,52.7517,0.3952,14.07,90,100,5.66,GB,1710930870
156,novovorontsovka,47.5004,33.9175,6.47,81,100,4.75,UA,1710930871
157,vila franca do campo,37.7167,-25.4333,15.23,59,36,1.77,PT,1710930872
158,kananga,-5.8958,22.4178,21.66,98,100,0.95,CD,1710930874
159,la passe,45.5549,-0.8967,18.56,69,100,4.79,FR,1710930876
160,gloucester,51.8657,-2.2431,14.14,85,75,2.57,GB,1710930877
161,hamilton,39.1834,-84.5333,7.65,61,0,7.6,US,1710930864
162,seosan,36.7817,126.4522,3.78,60,0,6.87,KR,1710930870
163,pampierstad,-27.7832,24.6877,36.92,11,58,1.67,ZA,1710930882
164,warmbaths,-24.8833,28.2833,34.9,21,9,4.08,ZA,1710930885
165,santa elena de uairen,4.6167,-61.1333,20.36,82,76,1.68,VE,1710930886
166,aasiaat,68.7098,-52.8699,-25.06,98,95,2.56,GL,1710930887
167,coquimbo,-29.9533,-71.3436,15.85,100,100,1.03,CL,1710930618
168,mahibadhoo,3.7833,72.9667,28.95,74,9,5.31,MV,1710930890
169,bougouni,11.417,-7.479,36.63,31,30,2.88,ML,1710930892
170,muynoq,43.7683,59.0214,7.87,85,100,10.93,UZ,1710930893
171,selfoss,63.9331,-20.9971,1.69,91,97,3.77,IS,1710930895
172,la jolla,32.8473,-117.2742,14.6,92,0,2.06,US,1710930656
173,tsiombe,-25.3,45.4833,33.3,43,0,4.89,MG,1710930898
174,caluula,11.9661,50.7569,27.78,74,59,9.62,SO,1710930899
175,amble,55.3333,-1.5833,9.25,93,100,4.12,GB,1710930901
176,kamiiso,41.8167,140.65,1.21,55,75,2.06,JP,1710930902
177,masterton,-40.9597,175.6575,8.39,94,0,1.33,NZ,1710930904
178,klyuchi,52.2667,79.1667,-0.49,82,99,2.85,RU,1710930905
179,asau,46.4333,26.4,4.6,37,41,3.83,RO,1710930907
180,ushuaia,-54.8,-68.3,2.81,65,20,2.06,AR,1710930727
181,suva,-18.1416,178.4415,24.71,100,75,1.54,FJ,1710930910
182,yorkton,51.2167,-102.4677,-18.09,71,0,0.0,CA,1710930763
183,kiunga,-6.1219,141.2906,24.29,98,94,1.1,PG,1710930912
184,jamestown,42.097,-79.2353,1.12,82,100,2.57,US,1710930755
185,akhnur,32.8667,74.7333,31.0,17,47,2.33,IN,1710930915
186,guerrero negro,27.9769,-114.0611,16.95,71,100,2.68,MX,1710930917
187,binzhou,37.3667,118.0167,9.91,19,0,2.82,CN,1710930918
188,labrador city,52.9463,-66.9114,-6.05,93,100,1.03,CA,1710930920
189,aykhal,66.0,111.5,-23.89,100,77,2.4,RU,1710930921
190,dudinka,69.4058,86.1778,-19.79,97,100,4.09,RU,1710930740
191,wailua homesteads,22.0669,-159.378,18.44,75,0,5.66,US,1710930924
192,langres,47.8333,5.3333,14.0,75,100,3.2,FR,1710930925
193,veraval,20.9,70.3667,30.63,44,30,6.7,IN,1710930927
194,molde,62.7375,7.1591,6.91,70,75,1.54,NO,1710930638
195,kone,-21.0595,164.8658,24.66,89,100,3.12,NC,1710930930
196,peniche,39.3558,-9.3811,16.83,91,0,5.48,PT,1710930931
197,jacmel,18.2342,-72.5347,24.41,82,30,2.84,HT,1710930934
198,severo-yeniseyskiy,60.3725,93.0408,-11.9,91,100,1.79,RU,1710930936
199,talcahuano,-36.7167,-73.1167,13.82,100,100,6.17,CL,1710930733
200,al jabin,14.704,43.599,14.36,75,91,2.55,YE,1710930939
201,dondo,-19.6094,34.7431,29.73,48,12,5.16,MZ,1710930940
202,mandera,3.9366,41.867,37.43,25,76,4.93,KE,1710930943
203,barcelos,41.5388,-8.6151,16.49,52,9,3.11,PT,1710930862
204,lavelanet,42.9313,1.8466,22.37,73,100,2.68,FR,1710930946
205,nova vicosa,-17.8919,-39.3719,27.55,76,70,1.86,BR,1710930868
206,mata-utu,-13.2816,-176.1745,29.31,68,100,1.25,WF,1710930949
207,yanchep,-31.55,115.6833,28.07,43,0,3.97,AU,1710930951
208,licheng,23.2955,113.8284,21.83,36,47,2.18,CN,1710930952
209,la'ie,21.6477,-157.9253,23.98,68,86,4.47,US,1710930954
210,howrah,22.5892,88.3103,20.0,88,100,2.57,IN,1710930955
211,ungsang-nodongjagu,42.3578,130.4622,-0.19,57,100,2.07,KP,1710930957
212,hotan,37.0997,79.9269,19.18,10,40,3.9,CN,1710930958
213,kaoma,-14.7833,24.8,31.45,30,58,4.66,ZM,1710930961
214,holbrook,40.8123,-73.0784,7.58,81,75,5.14,US,1710930963
215,batticaloa,7.7102,81.6924,28.67,71,1,5.05,LK,1710930916
216,gafsa,34.425,8.7842,22.12,43,0,3.6,TN,1710930966
217,fomboni,-12.28,43.7425,29.49,71,97,2.82,KM,1710930967
218,rio san juan,19.6439,-70.0763,24.21,83,34,2.19,DO,1710930969
219,bonthe,7.5264,-12.505,30.6,67,100,3.25,SL,1710930970
220,tari,12.4086,4.4914,36.06,8,68,6.12,NG,1710930972
221,east london,-33.0153,27.9116,25.52,78,20,4.12,ZA,1710930973
222,balapur,20.6667,76.7667,35.25,10,0,2.94,IN,1710930975
223,sao joao da barra,-21.6403,-41.0511,25.05,83,76,4.08,BR,1710930976
224,kathu,7.9178,98.3332,35.9,56,5,4.48,TH,1710930977
225,kiwira,-9.1667,33.5333,23.17,87,86,2.27,TZ,1710930979
226,ambovombe,-25.1667,46.0833,29.87,64,12,5.05,MG,1710930981
227,vadso,70.0744,29.7487,-1.91,80,0,5.14,NO,1710930982
228,quelimane,-17.8786,36.8883,27.97,83,75,3.55,MZ,1710930983
229,smithers,54.7804,-127.1743,3.18,56,20,3.09,CA,1710930857
230,palmer,42.1584,-72.3287,3.25,67,100,2.57,US,1710930720
231,yatou,37.15,122.3833,1.64,39,0,2.53,CN,1710930988
232,ketchikan,55.3422,-131.6461,5.99,93,40,1.54,US,1710930989
233,hanceville,34.0607,-86.7675,6.42,86,0,2.12,US,1710930857
234,angra do heroismo,38.65,-27.2167,16.18,77,20,0.45,PT,1710930992
235,sheregesh,52.9209,87.9869,1.64,98,100,2.11,RU,1710930994
236,kaspiyskiy,45.3929,47.3707,6.95,61,100,3.38,RU,1710930995
237,palu,-0.8917,119.8707,25.83,96,80,0.86,ID,1710930997
238,kencong,-8.2833,113.3667,26.68,83,9,1.09,ID,1710930998
239,peace river,56.2501,-117.286,-6.83,61,100,5.66,CA,1710930999
240,sitka,57.0531,-135.33,4.02,75,1,2.44,US,1710931001
241,san antonio oeste,-40.7319,-64.9477,19.23,45,99,7.94,AR,1710931002
242,nassau,40.7507,-73.5829,7.2,71,100,3.09,US,1710931004
243,puerto deseado,-47.7503,-65.8938,8.53,72,100,13.56,AR,1710931005
244,dharamsala,32.2419,76.3213,18.91,36,12,2.68,IN,1710931007
245,horta,38.5333,-28.6333,16.12,73,75,4.47,PT,1710930769
246,novodvinsk,64.4165,40.8122,1.86,90,97,3.59,RU,1710931010
247,elverum,60.8819,11.5623,2.1,98,83,1.44,NO,1710931012
248,douentza,14.9951,-2.9517,34.77,4,85,6.48,ML,1710931013
249,itoman,26.1247,127.6694,17.43,47,40,10.8,JP,1710931015
250,jwaneng,-24.6004,24.7303,36.49,15,15,1.7,BW,1710931016
251,krasnyy chikoy,50.3643,108.7512,-1.29,91,7,0.98,RU,1710931017
252,arkhangel'sk,64.5401,40.5433,2.06,60,0,5.0,RU,1710930825
253,atafu village,-8.5421,-172.5159,29.51,72,23,2.82,TK,1710931020
254,kapa'a,22.0752,-159.319,19.18,75,0,5.66,US,1710931022
255,leo,11.1,-2.1,36.7,15,64,3.02,BF,1710931023
256,teknaf,20.8624,92.3058,27.75,57,0,4.58,BD,1710931025
257,prince rupert,54.3161,-130.3201,5.83,100,100,1.03,CA,1710931026
258,salalah,17.0151,54.0924,29.05,58,75,6.17,OM,1710930807
259,qatana,33.4354,36.0815,13.24,73,91,6.49,SY,1710931030
260,sur,22.5667,59.5289,31.21,35,100,4.06,OM,1710931034
261,whakatane,-37.9585,176.9854,10.84,87,0,3.68,NZ,1710931035
262,khvalynsk,52.4906,48.1058,0.28,98,96,3.03,RU,1710931037
263,martapura,-3.4167,114.85,25.05,94,20,3.09,ID,1710931038
264,cabo san lucas,22.8909,-109.9124,22.09,67,82,0.26,MX,1710930964
265,island harbour,50.724,-1.2758,15.41,83,100,2.68,GB,1710931041
266,lompoc,34.6391,-120.4579,10.94,97,100,2.57,US,1710931002
267,faya-largeau,17.9257,19.1043,29.94,9,0,8.23,TD,1710931044
268,terenozek,45.05,64.9833,9.62,76,100,7.88,KZ,1710931046
269,toledo,39.8333,-4.0,18.51,41,83,3.67,ES,1710931047
270,griffith,41.5284,-87.4237,4.92,41,0,7.2,US,1710931049
271,nemuro,43.3236,145.575,-2.18,85,12,7.18,JP,1710931050
272,chonchi,-42.6128,-73.8092,6.56,79,70,3.07,CL,1710931052
273,sawa sawa,-4.4717,39.4846,30.02,70,61,4.43,KE,1710931053
274,mweka,-4.85,21.5667,22.58,94,100,1.83,CD,1710931055
275,saltillo,25.4167,-101.0,18.49,48,96,1.34,MX,1710930615
276,ciudad lazaro cardenas,17.9583,-102.2,21.16,60,85,1.57,MX,1710931057
277,rongelap,11.1635,166.8941,27.16,81,26,6.09,MH,1710931059
278,arno,60.1167,18.6333,0.44,99,100,3.03,SE,1710931060
279,mikuni,36.2171,136.1519,4.95,58,92,11.78,JP,1710931062
280,berber,18.0216,33.983,32.68,8,38,7.1,SD,1710931063
281,san patricio,28.017,-97.5169,17.69,79,100,2.07,US,1710931065
282,bubaque,11.2833,-15.8333,24.58,65,32,2.56,GW,1710931066
283,barra de santo antonio,-9.4047,-35.5072,26.6,62,64,3.54,BR,1710931068
284,coronel dorrego,-38.7187,-61.2873,20.63,85,88,3.26,AR,1710931069
285,sal rei,16.1833,-22.9167,23.11,68,75,9.26,CV,1710931071
286,bardai,11.65,7.2333,33.33,9,47,7.2,NG,1710931072
287,wynyard,-41.0,145.7167,9.1,65,0,2.41,AU,1710931074
288,banamba,13.55,-7.45,36.61,20,25,3.53,ML,1710931075
289,virginia beach,36.8529,-75.978,9.04,52,0,3.6,US,1710930758
290,al bawiti,28.3492,28.8659,24.84,20,2,4.17,EG,1710931078
291,monmouth,40.3001,-74.1663,7.11,66,100,3.6,US,1710931080
292,mahad,18.0833,73.4167,39.43,9,0,2.34,IN,1710931081
293,mandalgovi,45.7625,106.2708,3.54,26,23,3.62,MN,1710931083
294,macapa,0.0389,-51.0664,25.99,94,75,3.09,BR,1710931001
295,iaciara,-14.0958,-46.6317,24.21,87,39,0.64,BR,1710931086
296,port blair,11.6667,92.75,30.02,70,20,3.6,IN,1710931087
297,brunswick,41.2381,-81.8418,4.03,82,100,1.54,US,1710931088
298,fort mcmurray,56.7268,-111.381,-16.23,60,0,2.06,CA,1710930863
299,kerikeri,-35.2268,173.9474,11.06,85,46,1.46,NZ,1710931091
300,sultanah,24.4926,39.5857,25.25,19,0,4.12,SA,1710931093
301,alofi,-19.0595,-169.9187,26.94,94,20,1.54,NU,1710931094
302,st. john's,47.5649,-52.7093,0.5,87,75,10.29,CA,1710931081
303,vikulovo,56.8167,70.6107,0.26,81,89,4.75,RU,1710931097
304,el granada,37.5027,-122.4694,11.94,89,100,4.12,US,1710931099
305,carolina beach,34.0352,-77.8936,11.17,57,0,0.89,US,1710931100
306,fada,9.5667,8.3,37.65,10,65,1.3,NG,1710931102
307,la ronge,55.1001,-105.2842,-20.86,71,0,2.57,CA,1710931103
308,darwin,-12.4611,130.8418,29.47,84,40,5.14,AU,1710930423
309,piti village,13.4626,144.6933,26.28,80,0,3.09,GU,1710931106
310,menongue,-14.6585,17.691,30.42,31,84,4.88,AO,1710930982
311,guiuan,11.0333,125.7247,27.04,79,94,9.53,PH,1710931108
312,carnarvon,-24.8667,113.6333,28.52,61,99,6.26,AU,1710930891
313,chishmy,54.5765,55.3764,3.13,98,44,1.76,RU,1710931110
314,regen,48.9667,13.1333,13.61,52,35,0.89,DE,1710931111
315,kavaratti,10.5669,72.642,28.7,66,0,6.44,IN,1710930596
316,ambon,-3.6954,128.1814,30.49,95,40,1.03,ID,1710931113
317,hami,42.8,93.45,14.34,15,92,3.17,CN,1710931114
318,namibe,-15.1961,12.1522,30.82,55,64,2.94,AO,1710931115
319,rubtsovsk,51.5,81.25,0.25,91,96,3.18,RU,1710931116
320,oak hill,37.9723,-81.1487,4.69,56,5,2.94,US,1710931117
321,mili,6.0815,171.735,27.99,80,10,6.72,MH,1710931118
322,christchurch,-43.5333,172.6333,12.73,74,0,8.23,NZ,1710930814
323,egilsstadir,65.2653,-14.3948,1.95,51,20,3.09,IS,1710931120
324,myskhako,44.6714,37.7433,11.88,74,76,2.22,RU,1710931121
325,lerwick,60.1545,-1.1494,7.0,69,100,4.9,GB,1710931122
326,arendal,58.4615,8.7725,9.89,79,100,2.29,NO,1710931123
327,barabai,-2.5833,115.3833,25.45,95,77,0.85,ID,1710931124
328,daru,-9.0763,143.2092,26.8,86,100,2.94,PG,1710931125
329,anori,-3.7728,-61.6442,23.86,95,100,0.5,BR,1710931126
330,amga,60.8953,131.9608,-2.43,92,100,4.52,RU,1710931127
331,quellon,-43.1167,-73.6167,9.04,70,59,6.94,CL,1710931128
332,saint-philippe,-21.3585,55.7679,30.77,77,39,5.36,RE,1710931129
333,forster,-32.1667,152.5167,20.72,96,100,9.58,AU,1710931131
334,na mom,6.9586,100.5568,30.91,58,20,8.23,TH,1710931131
335,sosnovo-ozerskoye,52.5249,111.5418,-4.48,85,3,1.07,RU,1710931132
336,ingeniero guillermo n. juarez,-23.9,-61.85,29.21,56,82,6.63,AR,1710931133
337,grand baie,-20.0182,57.5802,29.14,74,20,2.68,MU,1710931134
338,rio preto da eva,-2.6994,-59.6997,24.38,93,100,0.47,BR,1710930921
339,mirnoye,44.9833,34.0667,5.88,84,100,4.62,UA,1710931136
340,okotoks,50.7289,-113.9828,-2.73,94,100,4.79,CA,1710931137
341,san borja,-14.8167,-66.85,23.41,96,100,0.88,BO,1710931139
342,campo do brito,-10.7333,-37.4933,27.86,63,68,4.15,BR,1710931140
343,bati,11.1833,40.0167,25.67,43,76,5.16,ET,1710931141
344,karratha,-20.7377,116.8463,30.65,50,25,3.7,AU,1710931143
345,wulingyuan,29.3494,110.5441,15.9,57,48,1.82,CN,1710931066
346,tirebolu,41.0069,38.8139,10.2,73,28,2.14,TR,1710931074
347,jumla,29.2747,82.1838,16.82,18,54,3.19,NP,1710931146
348,bogande,12.9714,-0.1436,35.91,7,73,5.98,BF,1710931148
349,siverskiy,59.3544,30.0783,2.65,69,98,2.79,RU,1710931149
350,lovisa,60.4566,26.2251,2.38,94,100,2.89,FI,1710931150
351,san luis de la loma,17.2706,-100.8939,23.62,47,58,1.49,MX,1710931151
352,kawambwa,-9.7915,29.0791,25.42,71,55,2.01,ZM,1710931152
353,aripuana,-9.1667,-60.6333,23.42,100,99,0.52,BR,1710931153
354,mercedes,-34.6515,-59.4307,22.7,98,22,3.13,AR,1710931154
355,campbell river,50.0163,-125.2446,7.0,86,100,2.36,CA,1710931155
356,bereket,39.2446,55.5154,17.53,59,88,11.36,TM,1710931156
357,san andres,12.5847,-81.7006,27.01,89,40,3.6,CO,1710931157
358,al kharijah,25.4514,30.5464,25.25,16,5,2.59,EG,1710931158
359,broken hill,-31.95,141.4333,18.83,24,57,7.74,AU,1710931159
360,nar'yan-mar,67.6713,53.087,-10.5,90,100,1.34,RU,1710931159
361,tongliao,43.6125,122.2653,3.75,34,49,2.18,CN,1710931160
362,cockburn town,21.4612,-71.1419,25.58,76,0,4.57,TC,1710931161
363,hammerfest,70.6634,23.6821,1.25,75,75,1.03,NO,1710931162
364,novyy urengoy,66.0833,76.6333,-23.62,93,95,6.94,RU,1710931163
365,kayangel,8.0823,134.7173,27.8,76,97,6.49,PW,1710931164
366,plantation,26.1342,-80.2318,18.34,87,75,2.57,US,1710931165
367,mitu,1.1983,-70.1733,22.68,98,86,0.22,CO,1710931166
368,grand-bassam,5.2118,-3.7388,29.98,67,76,3.57,CI,1710931168
369,anna regina,7.2644,-58.5077,26.39,76,88,3.79,GY,1710930956
370,pangody,65.85,74.4859,-22.28,92,98,6.72,RU,1710931169
371,leticia,-4.2153,-69.9406,25.03,100,75,1.03,CO,1710931170
372,dalandzadgad,43.5708,104.425,8.7,20,15,6.14,MN,1710931171
373,vilyuysk,63.7553,121.6247,-13.89,92,95,2.24,RU,1710931172
374,bouza,14.4229,6.0428,32.03,8,72,7.26,NE,1710931173
375,chateau-du-loir,47.6949,0.4185,16.21,71,100,3.17,FR,1710931174
376,queenstown,-31.8976,26.8753,27.05,32,99,3.2,ZA,1710930951
377,moab,38.5733,-109.5498,6.94,42,0,1.77,US,1710931176
378,askoy,60.4092,5.226,7.2,100,75,1.54,NO,1710931177
379,yeppoon,-23.1333,150.7333,25.88,81,70,6.34,AU,1710931177
380,necochea,-38.5473,-58.7368,20.83,94,93,2.85,AR,1710931178
381,ternate,0.8,127.4,27.38,83,93,4.04,ID,1710931179
382,axim,4.8699,-2.2405,30.73,68,79,3.73,GH,1710931180
383,ginir,7.1333,40.7,27.73,27,82,6.54,ET,1710930973
384,yeniseysk,58.4497,92.1703,-4.47,76,100,4.02,RU,1710931182
385,vanimo,-2.6741,141.3028,25.5,91,97,4.39,PG,1710931183
386,nova sintra,14.8667,-24.7167,19.69,75,0,9.16,CV,1710931184
387,auburn hills,42.6875,-83.2341,2.0,85,100,9.26,US,1710931185
388,north bend,43.4065,-124.2243,10.14,87,100,2.06,US,1710931186
389,ishim,56.1128,69.4902,-1.65,89,55,4.47,RU,1710931187
390,camacari,-12.6975,-38.3242,27.87,74,99,1.89,BR,1710931188
391,tibu,8.639,-72.7358,25.1,81,96,0.55,CO,1710931189
392,sambava,-14.2667,50.1667,28.56,76,67,3.94,MG,1710931190
393,conception bay south,47.4999,-52.9981,0.37,88,75,7.72,CA,1710931190
394,isangel,-19.55,169.2667,24.41,92,100,3.9,VU,1710931191
395,canyon lake,29.8752,-98.2625,12.59,81,100,0.45,US,1710931192
396,caleta de carquin,-11.0925,-77.6267,21.49,88,74,3.96,PE,1710931193
397,camocim,-2.9022,-40.8411,26.37,87,100,2.0,BR,1710931194
398,kharp,66.8014,65.8081,-17.19,84,3,3.17,RU,1710931195
399,kasama,-10.2129,31.1808,23.17,73,97,2.5,ZM,1710931080
400,alaghsas,17.0187,8.0168,29.94,10,3,10.29,NE,1710930928
401,mossel bay,-34.1831,22.146,25.96,77,66,7.83,ZA,1710931197
402,gadzhiyevo,69.2551,33.3362,-3.06,86,100,3.89,RU,1710931200
403,jamaame,0.0697,42.745,35.22,41,89,7.8,SO,1710931069
404,san mariano,7.5,126.0,23.78,88,82,1.77,PH,1710931202
405,blackwater,-23.5833,148.8833,25.34,69,74,6.25,AU,1710931203
406,sinabang,2.4803,96.3801,26.59,87,100,1.62,ID,1710931204
407,saipan,15.1355,145.701,25.39,73,0,2.57,MP,1710931021
408,komatipoort,-25.4332,31.9548,30.03,49,59,2.15,ZA,1710931206
409,cole harbour,44.6724,-63.4751,-0.29,79,20,3.09,CA,1710931206
410,saryozek,44.3583,77.9753,10.89,58,100,0.35,KZ,1710931207
411,tselinnoye,53.0833,85.6667,0.14,97,100,3.93,RU,1710931208
412,patan,27.6667,85.3333,12.21,87,75,1.03,NP,1710931197
413,loikaw,19.6742,97.2094,30.57,26,42,2.82,MM,1710931211
414,langsa,4.4683,97.9683,28.17,74,100,1.41,ID,1710931212
415,nuuk,64.1835,-51.7216,-7.66,73,75,13.38,GL,1710931212
416,hilo,19.7297,-155.09,18.85,90,100,3.09,US,1710931213
417,urangan,-25.3,152.9,25.67,84,37,3.58,AU,1710931214
418,nova olimpia,-14.7972,-57.2881,25.96,78,88,0.81,BR,1710931215
419,hithadhoo,-0.6,73.0833,28.99,68,36,5.62,MV,1710931217
420,skelleftea,64.7507,20.9528,3.2,70,0,3.6,SE,1710931219
421,keflavik,64.0049,-22.5624,2.95,93,100,7.2,IS,1710931220
422,tateyama,34.9833,139.8667,9.5,45,86,15.52,JP,1710931200
423,touros,-5.1989,-35.4608,29.48,68,16,5.28,BR,1710931222
424,nadym,65.5333,72.5167,-20.02,87,90,6.9,RU,1710931223
425,san antonio de pale,-1.4014,5.6325,28.67,71,97,2.01,GQ,1710931224
426,pacocha,-17.5833,-71.3333,21.08,73,20,5.14,PE,1710931225
427,ludington,43.9553,-86.4526,-0.9,58,100,7.72,US,1710931226
428,yuzhno-kurilsk,44.0306,145.8556,-3.73,93,84,3.18,RU,1710931227
429,nouadhibou,20.931,-17.0347,20.99,68,0,11.83,MR,1710931228
430,igarka,67.4667,86.5833,-12.56,94,100,0.96,RU,1710931229
431,turinskaya sloboda,57.6232,64.3858,1.94,81,64,3.24,RU,1710931230
432,concepcion,-36.827,-73.0498,13.89,100,100,6.17,CL,1710931232
433,fort bragg,35.139,-79.006,7.68,59,0,2.06,US,1710931233
434,sergach,55.5308,45.4661,0.37,99,86,0.82,RU,1710931235
435,zakharivka,47.3333,29.75,2.97,98,100,4.49,UA,1710931236
436,abqaiq,25.9371,49.6776,25.49,35,66,8.96,SA,1710931236
437,ippy,6.2679,21.2247,31.62,36,100,2.1,CF,1710930945
438,zeya,53.75,127.2667,-10.84,84,23,1.66,RU,1710931238
439,new norfolk,-42.7826,147.0587,10.72,79,19,1.55,AU,1710931239
440,mariental,-24.6333,17.9667,34.97,18,49,3.4,NA,1710931240
441,opuwo,-18.0607,13.84,34.61,24,9,6.29,NA,1710931204
442,ouesso,1.6136,16.0517,35.14,41,99,1.14,CG,1710931067
443,mhamid,29.82,-5.72,28.84,10,89,3.3,MA,1710931244
444,midvagur,62.0511,-7.1939,5.46,81,75,5.66,FO,1710931245
445,beloyarskiy,63.7119,66.6722,-7.78,83,61,4.02,RU,1710931246
446,haiku-pauwela,20.9219,-156.3051,20.58,79,20,5.66,US,1710931247
447,funafuti,-8.5243,179.1942,29.0,79,20,1.03,TV,1710931248
448,laguna,38.421,-121.4238,13.03,80,0,3.6,US,1710931249
449,khodoriv,49.4066,24.3136,3.35,91,100,3.06,UA,1710931250
450,vila velha,-20.3297,-40.2925,27.19,85,20,1.79,BR,1710931251
451,metlili chaamba,32.2667,3.6333,24.52,18,0,4.12,DZ,1710931252
452,prineville,44.2999,-120.8345,10.9,81,54,1.25,US,1710931252
453,portland,45.5234,-122.6762,9.78,90,44,0.45,US,1710931254
454,dunedin,-45.8742,170.5036,8.78,72,0,3.13,NZ,1710931204
455,belper,53.0233,-1.4812,12.82,94,100,3.68,GB,1710931256
456,amahai,-3.3333,128.9167,27.23,83,97,3.13,ID,1710931257
457,damavand,35.7178,52.065,7.9,50,62,9.26,IR,1710931257
458,samfya,-11.3649,29.5565,25.6,67,69,3.04,ZM,1710931258
459,san juanito,28.0,-107.5833,2.36,54,65,2.54,MX,1710931260
460,acarau,-2.8856,-40.12,27.26,81,100,2.19,BR,1710931261
461,holualoa,19.6228,-155.9522,20.91,92,40,2.06,US,1710931262
462,belel,7.05,14.4333,31.11,14,100,3.82,CM,1710931263
463,rawai,7.7797,98.3253,36.06,39,6,6.32,TH,1710931264
464,ludvika,60.1496,15.1878,3.11,100,100,0.71,SE,1710931265
465,forbes,-33.3833,148.0167,18.26,26,73,4.07,AU,1710931266
466,yurimaguas,-5.9,-76.0833,21.43,99,72,0.73,PE,1710931267
467,cannonvale,-20.2833,148.7,26.66,79,100,6.97,AU,1710931268
468,rio grande,-32.035,-52.0986,25.06,90,70,5.37,BR,1710931269
469,piranhas,-16.4269,-51.8222,25.28,82,97,0.2,BR,1710931270
470,newton,42.337,-71.2092,4.22,67,100,7.2,US,1710931271
471,vorkuta,67.5,64.0,-20.05,93,8,0.78,RU,1710931272
472,fethiye,36.6217,29.1164,17.93,47,88,2.13,TR,1710931274
473,stranraer,54.9023,-5.0273,6.88,90,100,6.51,GB,1710931275
474,campobello di mazara,37.6358,12.7443,18.37,71,15,3.58,IT,1710931276
475,andergrove,-21.0833,149.1833,25.8,78,90,5.81,AU,1710931277
476,mezzouna,34.5776,9.8419,21.73,38,2,2.4,TN,1710931278
477,mount gambier,-37.8333,140.7667,9.56,69,2,1.91,AU,1710931120
478,betio village,1.358,172.9211,28.02,82,23,5.8,KI,1710931282
479,puerto armuelles,8.2833,-82.8667,26.16,86,100,1.34,PA,1710931283
480,urkarakh,42.163,47.6307,1.17,96,100,2.11,RU,1710931284
481,singa,13.15,33.9333,37.65,22,54,5.63,SD,1710931285
482,north battleford,52.7834,-108.2847,-14.95,66,0,4.12,CA,1710931286
483,robertsport,6.7533,-11.3686,28.31,77,83,2.2,LR,1710931287
484,champerico,14.3,-91.9167,27.06,72,48,1.04,GT,1710931288
485,tanjung pandan,-2.75,107.65,27.35,79,89,4.01,ID,1710931289
486,chunskiy,56.0815,99.6342,1.49,91,98,3.35,RU,1710931290
487,khandyga,62.6667,135.6,-4.23,93,100,6.02,RU,1710931292
488,petauke,-14.2426,31.3253,27.87,51,99,2.54,ZM,1710931292
489,tamanrasset,22.785,5.5228,23.95,9,0,2.06,DZ,1710931293
490,noumea,-22.2763,166.4572,26.11,99,80,4.93,NC,1710931294
491,thunder bay,48.4001,-89.3168,-13.01,52,20,8.75,CA,1710931168
492,tulun,54.5611,100.5792,0.59,99,100,1.89,RU,1710931297
493,punta del este,-34.9667,-54.95,23.06,87,100,8.23,UY,1710931298
494,alo,7.4178,6.7371,38.32,29,87,1.3,NG,1710931299
495,ancud,-41.8697,-73.8203,8.95,78,37,4.58,CL,1710931300
496,sevlievo,43.0258,25.1136,13.34,45,9,4.88,BG,1710931301
497,ezhva,61.8128,50.7283,6.88,23,0,4.0,RU,1710931302
498,lashio,22.9333,97.75,29.8,24,24,2.26,MM,1710931303
499,conde,-7.2597,-34.9075,26.7,89,20,2.06,BR,1710931304
500,worcester,42.3334,-71.8328,2.51,75,100,3.6,US,1710931305
501,port lincoln,-34.7333,135.8667,16.06,59,1,7.05,AU,1710931306
502,okha,53.5739,142.9478,-7.18,91,100,3.69,RU,1710931307
503,onguday,50.75,86.15,2.92,91,100,0.65,RU,1710931308
504,saudarkrokur,65.7461,-19.6394,-3.14,85,98,3.11,IS,1710931310
505,siwa oasis,29.2041,25.5195,25.94,18,0,5.33,EG,1710931311
506,tazacorte,28.629,-17.9293,19.53,73,75,9.26,ES,1710931312
507,turpan,42.9333,89.1667,19.0,13,100,2.52,CN,1710931313
508,tozkhurmato,34.8905,44.6299,19.37,37,18,5.22,IQ,1710931314
509,pangkalanbuun,-2.6833,111.6167,26.82,86,89,1.92,ID,1710931315
510,launceston,-41.45,147.1667,11.8,50,4,4.12,AU,1710931234
511,aras-asan,8.8908,126.3033,26.14,83,98,4.08,PH,1710931316
512,gebeit,21.0667,36.3167,26.84,17,96,4.76,SD,1710931318
513,saint-felicien,48.6501,-72.4491,-10.62,85,40,1.54,CA,1710931319
514,prince albert,53.2001,-105.7677,-15.03,66,20,2.06,CA,1710931320
515,trenggalek,-8.05,111.7167,26.46,84,26,0.49,ID,1710931321
516,hadithah,34.1397,42.3781,20.61,30,2,2.6,IQ,1710931322
517,cody,44.5263,-109.0565,4.25,80,0,3.09,US,1710931323
518,jimenez,28.3333,-105.4,13.45,20,100,1.59,MX,1710931324
519,tzaneen,-23.8332,30.1635,32.75,36,11,4.05,ZA,1710931325
520,kill devil hills,36.0307,-75.676,9.43,58,0,5.14,US,1710931326
521,bayanhongor,46.7167,100.1167,-11.08,79,80,1.76,MN,1710931327
522,plettenberg bay,-34.0527,23.3716,23.54,71,94,7.1,ZA,1710931328
523,lae,-6.7221,146.9847,26.96,88,87,1.96,PG,1710931329
524,ndola,-12.9587,28.6366,25.52,66,50,3.05,ZM,1710931330
525,corner brook,48.9667,-57.9484,-0.91,94,76,0.97,CA,1710931332
526,huanren,41.2647,125.3667,-0.31,36,36,1.48,CN,1710931303
527,port isabel,26.0734,-97.2086,19.45,83,100,2.57,US,1710931334
528,mallasamudram,11.4833,78.0333,36.58,19,0,2.12,IN,1710931335
529,barela,23.1,80.05,32.45,25,40,4.12,IN,1710931336
530,murun-kuren,49.6342,100.1625,2.02,50,100,4.14,MN,1710931337
531,xinzo de limia,42.0635,-7.7246,15.27,72,87,1.8,ES,1710931338
532,casper,42.8666,-106.3131,-3.67,86,0,4.12,US,1710931338
533,saint-francois,46.4154,3.9054,18.71,60,0,1.54,FR,1710931339
534,delta,5.5,6.0,33.8,53,90,0.29,NG,1710931210
535,mar del plata,-38.0023,-57.5575,19.49,93,100,10.29,AR,1710931342
536,nizhnesortymskiy,62.4397,71.7603,-9.34,79,74,5.33,RU,1710931343
537,quinte west,44.1834,-77.5662,1.41,86,40,5.14,CA,1710931344
538,aksu,41.1231,80.2644,16.63,13,53,0.82,CN,1710931345
539,punta gorda,26.9298,-82.0454,14.44,88,0,5.81,US,1710931346
540,ikot ekpene,5.1794,7.7108,35.1,47,98,1.29,NG,1710931347
541,cidreira,-30.1811,-50.2056,24.6,92,38,5.33,BR,1710931348
542,kwang binh,17.4833,106.6,19.79,90,100,5.3,VN,1710931263
543,marovoay,-16.1,46.6333,34.26,51,28,0.58,MG,1710931055
544,saint-pierre,-21.3393,55.4781,30.82,66,75,3.09,RE,1710931351
545,komsomol'skiy,43.9783,46.6985,7.04,68,100,4.01,RU,1710931352
546,laibin,23.7,109.2667,17.92,60,99,0.5,CN,1710931354
547,shetpe,44.1667,52.1167,5.02,96,100,8.77,KZ,1710931355
548,alagon,41.7696,-1.1191,22.67,59,0,6.17,ES,1710931356
549,cuilapan de guerrero,17.0,-96.7667,17.33,86,100,1.84,MX,1710931357
550,muromtsevo,56.3724,75.2418,-0.71,87,97,4.85,RU,1710931358
551,ceeldheer,3.8488,47.1806,32.29,47,46,7.31,SO,1710931359
552,maun,-19.9833,23.4167,37.24,17,0,5.31,BW,1710931360
553,crane,31.3974,-102.3501,9.38,76,99,4.62,US,1710931361
554,homer,59.6425,-151.5483,1.94,87,100,0.0,US,1710931362
555,tchintabaraden,15.8969,5.7985,32.46,8,0,5.77,NE,1710931363
556,sabang,5.8933,95.3214,28.82,72,97,7.21,ID,1710931364
